name,url,price_adult,address,phone,closed_days,open_hours,lat,lng
白山浴場,https://www.1010.or.jp/map/item/item-cnt-1,550,東京都文京区白山２−７−１,03-3811-1052,月曜、最終火曜,１６：００−２３：００,35.7157602,139.748458199999
ニコニコ湯,https://www.1010.or.jp/map/item/item-cnt-2,550,東京都足立区千住柳町２−１０,03-3882-6645,木曜営業の場合あり,１５：００−２４：００,35.7528395,139.797328
あづま浴泉,https://www.1010.or.jp/map/item/item-cnt-3,550,東京都江戸川区中央２−３４−２,03-3654-0034,水曜、第１・第３木曜、第２土曜,１４：００−２１：００（２０：３０最終入店）,35.7087625,139.875684099999
湯の楽代田橋温泉,https://www.1010.or.jp/map/item/item-cnt-4,550,東京都杉並区和泉１−１−４,03-3321-4938,木曜,１５：００−２４：００日曜は１４：００から営業,35.672608,139.6597375
丸正浴場,https://www.1010.or.jp/map/item/item-cnt-5,550,東京都世田谷区喜多見４−３６−１６,03-3417-6804,水曜、第３火曜,１５：００−２２：００,35.6324954,139.591847899999
銀座湯,https://www.1010.or.jp/map/item/item-cnt-6,550,東京都中央区銀座１−１２−２,03-3561-2550,日曜、祝日,１５：００−２３：００,35.6744,139.770200299999
鶴の湯,https://www.1010.or.jp/map/item/item-cnt-7,550,東京都台東区浅草橋５−２７−２,03-3851-4569,土曜,１５：３０−２４：００,35.7012777,139.7834626
堤柳泉,https://www.1010.or.jp/map/item/item-cnt-8,550,東京都台東区千束４−５−４,03-3871-2395,月曜,１３：００−２２：００日曜、祝日は１２：００から営業,35.7236871,139.7974964
富久の湯,https://www.1010.or.jp/map/item/item-cnt-9,550,東京都台東区千束２−３４−６,03-5656-3592,不定休,月曜１５：４５−２３：３０、火・水・金・土曜６：００−１０：００／１５：４５−２３：３０、木曜６：００−１０：００、日曜６：００−１０：００／１５：４５−２２：３０※最終受付は営業終了30分前,35.722601,139.790474799999
ふれあいの湯,https://www.1010.or.jp/map/item/item-cnt-11,550,東京都港区芝２−２−１８,03-5442-2639,月曜※ただし、敬老の日は営業し、その翌日休業となります。,１５：００−２３：００、日・祝日は１４：００−２３：００,35.6530576,139.752740899999
大勝湯,https://www.1010.or.jp/map/item/item-cnt-12,550,東京都荒川区南千住１−１９−４,03-3806-0141,水曜,１０：００−２１：００,35.7330223,139.790663099999
タイムリゾート,https://www.1010.or.jp/map/item/item-cnt-13,550,東京都荒川区町屋４−４−１,03-3819-7941,金曜,１５：００−２４：００,35.7457258,139.7771996
高砂湯,https://www.1010.or.jp/map/item/item-cnt-14,550,東京都墨田区立川４−１１−１２,03-3631-3233,月曜、水曜,１５：３０−２３：００,35.6910819,139.8066552
押上温泉 大黒湯,https://www.1010.or.jp/map/item/item-cnt-15,550,東京都墨田区横川３−１２−１４,03-3622-6698,火曜祝日の場合は翌日休,１５：００−翌朝１０：００土曜は１４時から、日・祝日は１３時から営業,35.7050025,139.813623799999
寺島浴場,https://www.1010.or.jp/map/item/item-cnt-16,550,東京都墨田区東向島６−３４−１８,03-3611-6755,月曜、火曜,１６：００－２３：００、土・日曜１５：００－２３：００,35.7246458,139.821005799999
ニュー松の湯,https://www.1010.or.jp/map/item/item-cnt-17,550,東京都江東区東陽３−１２−１１,03-3644-6064,月曜祝日は翌日休,１５：００−２２：３０,35.6702149,139.809746799999
第二久の湯,https://www.1010.or.jp/map/item/item-cnt-18,550,東京都江東区大島１−３６−６,03-3637-1226,木曜,１５：００−２２：００,35.6873602,139.82582
喜楽湯,https://www.1010.or.jp/map/item/item-cnt-19,550,東京都江東区南砂４−１５−１９,03-3644-3803,土曜,１６：００−２２：３０,35.6723789,139.830797299999
若松湯,https://www.1010.or.jp/map/item/item-cnt-21,550,東京都足立区中央本町２−１９−１１,03-3886-5230,金曜,１５：００−２４：００,35.7704373,139.8100785
星谷浴泉,https://www.1010.or.jp/map/item/item-cnt-22,550,東京都足立区扇１−３４−３,03-3890-1786,月曜,１５：３０−２３：００,35.7633599,139.7773457
大平湯,https://www.1010.or.jp/map/item/item-cnt-23,550,東京都足立区青井６−２１−３,03-3887-4564,月曜祝日は翌日休,１４：３０−２３：５５、日曜は８：００−１２：００／１５：００−２３：５５,35.7779419,139.8141057
アクアガーデン栄湯,https://www.1010.or.jp/map/item/item-cnt-24,550,東京都葛飾区東四つ木３−４５−７,03-3692-5206,月曜、火曜,１７：００−２２：００、日・祝日１７：００−２１：３０,35.7304511,139.8400924
興和浴場,https://www.1010.or.jp/map/item/item-cnt-25,550,東京都葛飾区鎌倉４−１７−１４,03-3658-8359,木曜,１５：２０−２３：３０,35.7496321,139.8796598
第一日立湯,https://www.1010.or.jp/map/item/item-cnt-26,550,東京都葛飾区亀有５−４８−１２,03-3605-0532,月曜祝日は営業,男湯１６：００−２２：００（最終入店２１：３０）、女湯１６：００−２１：４５（最終入店２１：００）,35.7690855,139.8493555
さつき湯,https://www.1010.or.jp/map/item/item-cnt-27,550,東京都葛飾区東堀切３−２７−９,03-3602-1447,月曜,１５：１５−２３：００,35.7532151,139.839085399999
金泉湯,https://www.1010.or.jp/map/item/item-cnt-28,550,東京都江戸川区平井７−１７−３６,03-3612-0582,月曜祝日は翌日休み,１５：００−２２：００,35.7144995,139.8386461
竹の湯,https://www.1010.or.jp/map/item/item-cnt-29,550,東京都江戸川区篠崎町４−２１−１５,03-3677-5036,月曜振替休日は営業,１６：００−２２：００（最終入店は２１：３０）,35.6994762,139.912153699999
庄楽の湯,https://www.1010.or.jp/map/item/item-cnt-31,550,東京都江戸川区上篠崎２−１２−１６,03-3679-3722,木曜、第１・第３・第５水曜,１４：３０−２２：００（最終入店２１：３０）,35.712288,139.9033566
竹の湯,https://www.1010.or.jp/map/item/item-cnt-32,550,東京都新宿区改代町２,03-3268-8544,金曜、土曜,１５：００−２２：３０,35.7065396,139.734606999999
金沢浴場（休業中）,https://www.1010.or.jp/map/item/item-cnt-33,550,東京都新宿区新宿７−２２−１１,03-3203-6784,火曜,１４：００−２３：００,35.700059,139.710278799999
三の輪湯,https://www.1010.or.jp/map/item/item-cnt-34,550,東京都新宿区上落合３−３１−２,03-3368-2661,月曜、第２・第４火曜,１５：３０−２５：００,35.713801,139.6819728
渋谷笹塚温泉 栄湯,https://www.1010.or.jp/map/item/item-cnt-35,550,東京都渋谷区笹塚２−９−５,03-3377-3369,水曜、木曜,１５：００−２４：００、第１・３日曜 １３：００−２４：００（最終受付は閉店の３０分前まで）,35.6756885,139.6687144
アクア東中野,https://www.1010.or.jp/map/item/item-cnt-36,550,東京都中野区東中野４−９−２２,03-5330-1126,月曜祝日は翌日休,１５：００−２４：００,35.7074713,139.685784
月の湯,https://www.1010.or.jp/map/item/item-cnt-37,550,東京都中野区南台２−３０−７,03-3381-8786,月曜、火曜,１５：００−２３：００,35.6841542,139.670147199999
弁天湯,https://www.1010.or.jp/map/item/item-cnt-38,550,東京都杉並区高円寺南３−２５−１,03-3312-0449,月曜,１５：３０−２５：００,35.7008489,139.645076
桜湯,https://www.1010.or.jp/map/item/item-cnt-39,550,東京都杉並区和田３−１１−９,03-3381-8461,木曜,１５：３０−２３：３０,35.6927111,139.6560478
金春湯,https://www.1010.or.jp/map/item/item-cnt-41,550,東京都品川区大崎３−１８−８,03-3492-4150,火曜,月～金曜１５：３０−２４：００、土曜・日曜１０：００−２４：００（入店は３０分前まで）,35.6174221,139.721636499999
戸越銀座温泉,https://www.1010.or.jp/map/item/item-cnt-42,550,東京都品川区戸越２−１−６,03-3782-7400,金曜,１５：００−２５：００日曜、祝日は８：００−１２：００も営業,35.6147723,139.718603499999
中延記念湯,https://www.1010.or.jp/map/item/item-cnt-43,550,東京都品川区旗の台４−１１−２,03-3781-3095,年中無休,１４：００−２５：００日祝は１０：００−２５：００,35.6017067,139.7029748
新呑川湯,https://www.1010.or.jp/map/item/item-cnt-44,550,東京都大田区大森南１−２１−１１,03-3741-9406,金曜,１１：００−２３：００,35.5618739,139.7385134
第一相模湯,https://www.1010.or.jp/map/item/item-cnt-45,550,東京都大田区西六郷２−２９−２,03-3731-1993,月曜,１４：３０−２３：００,35.5495364,139.707608199999
都湯,https://www.1010.or.jp/map/item/item-cnt-46,550,東京都大田区下丸子４−３−１１,03-3759-7575,月曜祝日の場合は翌日休,１４：３０−２４：００,35.5720524,139.6829571
八幡浴場,https://www.1010.or.jp/map/item/item-cnt-47,550,東京都大田区南千束３−１−１３,03-3729-4379,金曜第５金曜および祭日の場合は営業,１６：００−２５：００,35.6044198,139.687262199999
駒の湯,https://www.1010.or.jp/map/item/item-cnt-48,550,東京都世田谷区三軒茶屋２−１７−１３,03-3421-4513,月曜・火曜,１５：３０−２３：３０,35.6429507,139.6671323
石川湯,https://www.1010.or.jp/map/item/item-cnt-49,550,東京都世田谷区北沢３−１２−８,03-3466-4305,月曜祝日の場合は翌日休,１５：１５−２３：４５,35.6654148,139.670772899999
栗の湯,https://www.1010.or.jp/map/item/item-cnt-51,550,東京都世田谷区新町１−３６−６,03-3702-3305,月曜、火曜、水曜※変更の場合もあるのでSNS等で要確認,１４：００−２２：００,35.6275911,139.6466457
みどり湯,https://www.1010.or.jp/map/item/item-cnt-52,550,東京都目黒区緑が丘２−７−１４,03-3717-4516,木曜,１３：００−２２：００,35.6090716,139.674035399999
梅の湯,https://www.1010.or.jp/map/item/item-cnt-53,550,東京都千代田区神田神保町２−８−２,03-3261-5897,日曜、祝日,１５：００−２２：００,35.6966775,139.7553033
稲荷湯（神田）,https://www.1010.or.jp/map/item/item-cnt-54,550,東京都千代田区内神田１−７−３,03-3294-0670,日曜,１４：４０−２２：３０,35.6901591,139.7663695
於玉湯,https://www.1010.or.jp/map/item/item-cnt-55,550,東京都千代田区岩本町２−２−１４,03-3866-2306,月曜、火曜、木曜、金曜、土曜,１４：３０−１９：３０,35.6928257,139.7755661
滝野川稲荷湯,https://www.1010.or.jp/map/item/item-cnt-56,550,東京都北区滝野川６−２７−１４,03-3916-0523,水曜（月に一度連休あり）,１５：００−２４：３０,35.7447078,139.724409199999
金春湯,https://www.1010.or.jp/map/item/item-cnt-57,550,東京都中央区銀座８−７−５,03-3571-5469,日曜、祝日,１４：００−２２：００、土曜のみ１４：００−２０：００,35.6686032,139.761320399999
湊湯,https://www.1010.or.jp/map/item/item-cnt-58,550,東京都中央区湊１−６−２,03-3551-0667,月曜,１５：００−２４：００（最終受付２３：００）,35.6726505,139.779641399999
さくら湯,https://www.1010.or.jp/map/item/item-cnt-59,550,東京都板橋区板橋３−３９−１２,03-3961-3196,月曜、木曜,１５：３０−２０：３０,35.7527565,139.713573799999
熊野湯,https://www.1010.or.jp/map/item/item-cnt-61,550,東京都板橋区志村１−３２−２０,03-3960-5861,水曜,１４：００−２２：００,35.7759585,139.690030799999
光徳湯,https://www.1010.or.jp/map/item/item-cnt-62,550,東京都板橋区徳丸３−１１−１６,03-3933-8740,不定休,１５：００−２３：００日曜は８：３０から営業,35.7705666,139.6554979
日の出湯,https://www.1010.or.jp/map/item/item-cnt-63,550,東京都中央区佃１−６−７,03-3532-1629,木曜,１５：００−２４：００,35.6674928,139.7832803
辰巳湯,https://www.1010.or.jp/map/item/item-cnt-64,550,東京都練馬区桜台４−４２−２,03-3994-2680,水曜,１４：３０−２４：３０,35.740623,139.6568654
月島温泉,https://www.1010.or.jp/map/item/item-cnt-65,550,東京都中央区月島３−４−５−２F,03-3531-1126,第１・第３・第５水曜,１４：３０－２１：３０,35.6635876,139.7810722
勝どき湯,https://www.1010.or.jp/map/item/item-cnt-66,550,東京都中央区勝どき３−９−７,03-5560-1019,火・日曜（土曜は営業）,１５：３０−２２：００,35.657883,139.7741138
十思湯,https://www.1010.or.jp/map/item/item-cnt-67,550,東京都中央区日本橋小伝馬町５−１９,03-6264-9920,日曜,１５：００−２０：００※2026年4月29日～5月31日まで時短営業,35.690653,139.777105
辨天湯,https://www.1010.or.jp/map/item/item-cnt-68,550,東京都台東区浅草橋１−３３−６ 浅草橋シティハイツ１階,03-3864-7100,第２、第４月曜１月１日は休業,１５：３０−２３：００,35.6985003,139.784951399999
帝国湯,https://www.1010.or.jp/map/item/item-cnt-69,550,東京都台東区浅草橋５−２３−６,03-3851-2785,月曜,１５：００−２３：３０,35.7019665,139.781762599999
三筋湯,https://www.1010.or.jp/map/item/item-cnt-71,550,東京都台東区三筋２−１３−２,03-3851-2683,月曜、火曜,１５：００−２２：００,35.7054413,139.786498299999
日の出湯,https://www.1010.or.jp/map/item/item-cnt-72,550,東京都台東区元浅草２−１０−５,03-3841-0969,水曜,１５：００−２３：４０,35.7106463,139.784286999999
天然温泉 湯どんぶり栄湯,https://www.1010.or.jp/map/item/item-cnt-73,550,東京都台東区日本堤１−４−５,03-3875-2885,水曜,１４：００−２３：００日曜、祝日は１２：００から営業,35.7254842,139.7987046
曙湯,https://www.1010.or.jp/map/item/item-cnt-76,550,東京都台東区浅草４−１７−１,03-3873-6750,第２火曜,プレオープン期間（2025/8/9～22）は15：00−24：008/23以降は6：00−9：00、11：00−25：00,35.7182736,139.795435799999
アクアプレイス旭,https://www.1010.or.jp/map/item/item-cnt-77,550,東京都台東区浅草５−１０−５,03-3872-3091,火曜,１５：００−２５：００,35.7201762,139.794533
鶴の湯,https://www.1010.or.jp/map/item/item-cnt-78,550,東京都台東区浅草５−４８−４,03-3872-7753,木曜祝日は前日休,１４：００−２３：００,35.7206957,139.799138099999
富士の湯,https://www.1010.or.jp/map/item/item-cnt-81,550,東京都台東区橋場２−２１−７,03-3876-9530,金曜,１４：００−２３：００,35.7277092,139.8053429
燕湯,https://www.1010.or.jp/map/item/item-cnt-82,550,東京都台東区上野３−１４−５,03-3831-7305,月曜、火曜,６：００～２０：００（最終受付は19時半）,35.7055686,139.772863
寿湯,https://www.1010.or.jp/map/item/item-cnt-83,550,東京都台東区東上野５−４−１７,03-3844-8886,第３木曜、１月１日・２日,１１：００−２５：３０（完全閉店）,35.7122211,139.782675899999
宝泉湯,https://www.1010.or.jp/map/item/item-cnt-88,550,東京都台東区根岸３−１４−１４,03-3875-4126,月曜,１５：００−２４：００,35.722359,139.7825615
白水湯,https://www.1010.or.jp/map/item/item-cnt-89,550,東京都台東区入谷１−２１−１２,03-6802-3316,水曜（祝日の場合は営業）,９：００−２４：００,35.7209704,139.7866641
有馬湯,https://www.1010.or.jp/map/item/item-cnt-92,550,東京都台東区竜泉３−３１−２,03-3873-2978,水曜,１４：００−２３：３０,35.7265396,139.795221399999
改栄湯,https://www.1010.or.jp/map/item/item-cnt-94,550,東京都台東区三ノ輪２−１０−１５,03-6897-2824,火曜,月～金曜１４：００−２４：００、土・日曜１２：００−２４：００※最終入場２３：３０,35.7298811,139.7931645
朝日湯,https://www.1010.or.jp/map/item/item-cnt-96,550,東京都台東区谷中２−１８−７,03-3821-5849,年中無休,１０：００−２５：３０,35.7243496,139.764432299999
豊川浴泉,https://www.1010.or.jp/map/item/item-cnt-97,550,東京都文京区目白台１−１３−１,03-3941-7856,月曜、金曜コインシャワー・ランドリーは無休,１６：００−２３：３０,35.7144662,139.7176746
大黒湯,https://www.1010.or.jp/map/item/item-cnt-99,550,東京都文京区大塚３−８−６,03-3941-5826,月曜、最終火曜,１５：３０−２３：３０,35.7208464,139.7327345
ふくの湯,https://www.1010.or.jp/map/item/item-cnt-104,550,東京都文京区千駄木５−４１−５,03-3823-0371,木曜,１１：００−２４：００、土日祝８：００−２４：００,35.7279871,139.7566007
アクアガーデン三越湯,https://www.1010.or.jp/map/item/item-cnt-107,550,東京都港区白金５−１２−１６,03-3473-4126,水曜、金曜、土曜、日曜,１５：３０−２２：００,35.6447772,139.7242493
麻布黒美水温泉 竹の湯,https://www.1010.or.jp/map/item/item-cnt-108,550,東京都港区南麻布１−１５−１２,03-3453-1446,月、金曜日,１５：３０−２３：３０,35.6514517,139.7342565
南青山　清水湯,https://www.1010.or.jp/map/item/item-cnt-109,550,東京都港区南青山３−１２−３,03-3401-4404,金曜,１２：００−２４：００土、日、祝は１２：００−２３：００,35.6660299,139.7140107
鴻の湯,https://www.1010.or.jp/map/item/item-cnt-111,550,東京都荒川区東日暮里２−２０−１０,03-3801-3011,月曜,１５：３０−２２：３０,35.7316943999999,139.785174699999
雲翠泉,https://www.1010.or.jp/map/item/item-cnt-112,550,東京都荒川区東日暮里３−１６−４,03-3801-4126,水曜,１５：００−２２：００,35.7321357,139.780527799999
帝国湯,https://www.1010.or.jp/map/item/item-cnt-113,550,東京都荒川区東日暮里３−２２−３,03-3891-4637,月曜,１５：００−２２：００,35.7307915,139.7811223
黄金湯,https://www.1010.or.jp/map/item/item-cnt-114,550,東京都荒川区東日暮里３−２７−１０,03-3891-4073,火曜,１５：００−２３：００,35.7289221,139.780378
寿湯（休業中）,https://www.1010.or.jp/map/item/item-cnt-115,550,東京都荒川区東日暮里４−１２−３,03-3801-6595,土曜,１５：００−２３：４０,35.7277418,139.7825112
日暮里 斉藤湯,https://www.1010.or.jp/map/item/item-cnt-118,550,東京都荒川区東日暮里６−５９−２,03-3801-4022,金曜,１４：００−２３：００,35.7294023,139.772972999999
千歳湯,https://www.1010.or.jp/map/item/item-cnt-119,550,東京都荒川区西日暮里４−８−４,03-3828-0229,金曜,１５：３０−２４：００,35.7334123,139.761979399999
草津湯,https://www.1010.or.jp/map/item/item-cnt-123,550,東京都荒川区南千住７−２６−２,03-3801-5574,火曜,１５：００−２２：００,35.7356278,139.7992041
藤の湯,https://www.1010.or.jp/map/item/item-cnt-125,550,東京都荒川区荒川３−１６−４,03-3807-1569,木曜,１４：００−２４：００,35.7329275,139.7829137
喜楽湯,https://www.1010.or.jp/map/item/item-cnt-126,550,東京都荒川区荒川３−５９−１１,03-3805-2005,月曜,１５：００−２３：００（入店は22時半まで）,35.7341270999999,139.779191699999
ニュー恵美須,https://www.1010.or.jp/map/item/item-cnt-134,550,東京都荒川区東尾久４−１７−９,03-3894-7602,第１、３月曜,１４：３０−２３：００,35.7435588,139.7675811
尾久ゆ～ランド（休業中）,https://www.1010.or.jp/map/item/item-cnt-135,550,東京都荒川区東尾久５−２７−５,03-5692-1504,火曜、水曜、木曜,１５：００−２５：００,35.7454031,139.7671533
大門湯（休業中）,https://www.1010.or.jp/map/item/item-cnt-136,550,東京都荒川区東尾久６−１１−２,03-3895-4668,月曜,１６：００−２１：００,35.7465144,139.7747053
梅の湯,https://www.1010.or.jp/map/item/item-cnt-137,550,東京都荒川区西尾久４−１３−２,03-3893-1695,月曜,１５：００−２５：００日曜は８：００～１２：００も営業,35.7467721,139.7614231
千代の湯,https://www.1010.or.jp/map/item/item-cnt-138,550,東京都荒川区西尾久５−２２−１４,03-3893-5439,木曜,１４：００−２３：００,35.7487301,139.759173199999
神田湯,https://www.1010.or.jp/map/item/item-cnt-139,550,東京都荒川区西尾久８−３８−３,03-3893-3413,金曜,１５：００−２４：００,35.7512602,139.751607
松の湯（墨田）,https://www.1010.or.jp/map/item/item-cnt-143,550,東京都墨田区緑３−４−６,03-3846-8988,無休,１５：００−２４：００土曜、日曜は８：００～１３：００も営業,35.6932705,139.8050553
幸楽湯（休業中）,https://www.1010.or.jp/map/item/item-cnt-144,550,東京都墨田区亀沢４−２４−７,03-3622-3766,第１、３、４土曜,１５：３０−２１：００,35.6989254,139.8058163
御谷湯,https://www.1010.or.jp/map/item/item-cnt-145,550,東京都墨田区石原３−３０−８,03-3623-1695,月曜祝日の場合は翌日休,１５：３０−２６：００（最終入場２５：３０）、日曜１５：００−２４：００（最終入場２３：３０）,35.701525,139.804532
荒井湯,https://www.1010.or.jp/map/item/item-cnt-146,550,東京都墨田区本所２−８−７,03-3622-0740,水曜,１５：３０−２３：３０,35.7034332,139.8006583
黄金湯,https://www.1010.or.jp/map/item/item-cnt-149,550,東京都墨田区太平４−１４−６,03-3622-5009,第２・第４月曜,６：００−９：００／１１：００−２４：３０,35.7023278,139.8152737
さくら湯,https://www.1010.or.jp/map/item/item-cnt-151,550,東京都墨田区業平４−６−５,03-3623-6917,月曜（祝日の場合は翌日休）,１５：００−２４：００,35.7074107,139.814937399999
薬師湯,https://www.1010.or.jp/map/item/item-cnt-152,550,東京都墨田区向島３−４６−１０,03-3622-1545,水曜（祝日の場合は要ホームページ確認）,１５：３０−２６：００,35.711393,139.809324
おかめ湯,https://www.1010.or.jp/map/item/item-cnt-154,550,東京都墨田区八広１−１−２,03-3611-4459,月曜,１６：３０−２３：１５,35.7203155,139.8209615
三徳湯,https://www.1010.or.jp/map/item/item-cnt-156,550,東京都墨田区八広６−８−８,03-3614-1058,土曜,１５：３０−２３：００,35.728429,139.8263468
電気湯,https://www.1010.or.jp/map/item/item-cnt-159,550,東京都墨田区京島３−１０−１０,03-3610-8998,土曜,１５：００−２４：００（最終受付２３：３０）日曜は８：００−１２：００も営業,35.716463,139.8225476
みまつ湯,https://www.1010.or.jp/map/item/item-cnt-165,550,東京都墨田区墨田４−９−１２,03-3611-7937,土曜,１５：３０−２１：００,35.7326203,139.8210417
田中湯,https://www.1010.or.jp/map/item/item-cnt-166,550,東京都墨田区墨田５−４６−５,03-3611-3277,月曜,１６：００−２３：００（最終入場は２２：２０）,35.734548,139.820066699999
白山湯,https://www.1010.or.jp/map/item/item-cnt-168,550,東京都江東区枝川１−６−１５,03-3645-0862,土曜,１５：００−２３：３０※最終入館２３：００,35.6570052,139.803897799999
金春湯,https://www.1010.or.jp/map/item/item-cnt-169,550,東京都江東区東陽１−６−９,03-3645-2303,木曜,１５：００−２３：００,35.667368,139.809058
辰巳湯,https://www.1010.or.jp/map/item/item-cnt-172,550,東京都江東区三好１−２−３,03-3641-9436,月曜（祝日は営業。翌火曜も営業）,１４：００−２４：００、土曜・日曜・祝日１１：００−２４：００（最終入場２３：３０）,35.6798999,139.799692199999
深川温泉 常盤湯,https://www.1010.or.jp/map/item/item-cnt-173,550,東京都江東区常盤２−３−８,03-3631-9649,木曜,１２：００−２４：３０最終受付閉店30分前,35.6847382,139.796989599999
竹の湯,https://www.1010.or.jp/map/item/item-cnt-174,550,東京都江東区森下４−９−１８,03-3631-5268,土曜,１５：３０−２３：００,35.6855381,139.8060331
猿江 亀の湯,https://www.1010.or.jp/map/item/item-cnt-175,550,東京都江東区猿江１−１８−９,03-3631-5449,土曜,１５：３０−２４：００,35.687024,139.811682499999
隆乃湯,https://www.1010.or.jp/map/item/item-cnt-178,550,東京都江東区亀戸５−９−７,03-3681-5440,木曜,１５：０５−２３：３０,35.6989672,139.828017
富山湯,https://www.1010.or.jp/map/item/item-cnt-179,550,東京都江東区亀戸６−４９−１４,03-3681-5912,土曜,１５：００−２３：００,35.6946123,139.8325416
らかん湯,https://www.1010.or.jp/map/item/item-cnt-181,550,東京都江東区大島２−３７−７,03-3684-3775,月曜祝日は営業,１５：００−２３：００,35.6913736,139.8257783
春の湯,https://www.1010.or.jp/map/item/item-cnt-183,550,東京都江東区大島７−２５−１４,03-5626-1830,月曜,１５：２０−２３：００,35.691463,139.841046399999
竹の湯,https://www.1010.or.jp/map/item/item-cnt-184,550,東京都江東区北砂３−２５−８,03-3644-0366,火曜,１５：３０−２２：３０,35.6814888,139.8298779
亀の湯,https://www.1010.or.jp/map/item/item-cnt-186,550,東京都江東区北砂４−２０−２５,03-3644-6514,月曜,１６：００−２２：３０,35.6769006,139.8315833
文化湯,https://www.1010.or.jp/map/item/item-cnt-188,550,東京都江東区北砂６−１４−８,03-3644-7418,月曜祝日は翌日休,１４：００−２２：４５日・祝日は１３：００から営業,35.6843137,139.836977299999
藤の湯,https://www.1010.or.jp/map/item/item-cnt-192,550,東京都江東区東砂３−１８−１７,03-3644-7351,木曜,１４：３０−２２：３０,35.6806837,139.841365799999
不二の湯,https://www.1010.or.jp/map/item/item-cnt-194,550,東京都江東区東砂８−２０−１６,03-3644-1771,月曜、水曜変更の場合事前に告知,１５：００−２２：３０,35.6684019,139.8415769
美登利湯,https://www.1010.or.jp/map/item/item-cnt-195,550,東京都足立区千住旭町２５−１１,03-3881-6626,火曜、第１・第３金曜,１６：００−２３：３０,35.7494096,139.809824599999
梅の湯,https://www.1010.or.jp/map/item/item-cnt-196,550,東京都足立区千住旭町４１−１１,03-3881-6310,不定休（主に日曜）,１６：００−２３：３０、土曜・日曜・祝日は２３：００まで,35.7501843999999,139.8059581
大和湯,https://www.1010.or.jp/map/item/item-cnt-198,550,東京都足立区柳原２−４３−１,03-3881-6029,水曜,１５：３０−２３：００,35.7483654,139.812407799999
金の湯,https://www.1010.or.jp/map/item/item-cnt-203,550,東京都足立区千住柳町３６−８,03-3881-5869,火曜、第１水曜,１５：００−２４：００,35.7550781,139.796364
タカラ湯,https://www.1010.or.jp/map/item/item-cnt-204,550,東京都足立区千住元町２７−１,03-3881-2660,第１木曜、金曜,１５：００−２２：４５（最終入店２２：１５）,35.7559891,139.7942725
曙湯,https://www.1010.or.jp/map/item/item-cnt-206,550,東京都足立区足立４−２２−３,03-3886-0706,木曜、第１水曜,１５：００−２３：００,35.765699,139.8052959
常盤湯（足立）,https://www.1010.or.jp/map/item/item-cnt-207,550,東京都足立区足立４−２８−８,03-3886-0836,月曜、火曜,１５：００−２２：００変更の場合事前に掲示板で告知,35.7647297,139.8081568
明美湯,https://www.1010.or.jp/map/item/item-cnt-209,550,東京都足立区梅田４−４０−２１,03-3887-1856,木曜ただし第５木曜は営業,１５：００−２４：００,35.7655462,139.792310899999
大和湯,https://www.1010.or.jp/map/item/item-cnt-211,550,東京都足立区島根２−１９−７,03-3883-8395,木曜、第１金曜,１５：４５−２１：００,35.7814637,139.797818099999
永泉湯,https://www.1010.or.jp/map/item/item-cnt-212,550,東京都足立区西新井３−１０−２,03-3897-2641,火曜,１６：００−２２：００,35.7879349,139.783710899999
湯処じんのび,https://www.1010.or.jp/map/item/item-cnt-213,550,東京都足立区西新井６−４３−４,03-3890-8417,月曜,１４：００−２４：００日曜は１２時から営業,35.7823658999999,139.7769172
おきもと湯,https://www.1010.or.jp/map/item/item-cnt-214,550,東京都足立区西新井本町４−２９−２４,03-3898-8626,月曜,１６：００−２２：３０,35.7739086,139.775220399999
竹の湯,https://www.1010.or.jp/map/item/item-cnt-216,550,東京都足立区関原１−９−１３,03-3887-1501,火曜、水曜,１４：５０−２３：３０,35.7647296,139.7883974
堀田湯,https://www.1010.or.jp/map/item/item-cnt-218,550,東京都足立区関原３−２０−１４,03-3852-4126,第２木曜,平日１４：００−２４：００、土曜・日曜・祝日８：００−２４：００,35.7717454,139.788994199999
岡田湯,https://www.1010.or.jp/map/item/item-cnt-219,550,東京都足立区関原３−４３−２,03-3886-3444,月曜,１４：００−２３：４５,35.771226,139.785413999999
江北湯,https://www.1010.or.jp/map/item/item-cnt-224,550,東京都足立区江北２−２７−６,03-3890-0268,金曜,１５：００−２３：００,35.770006,139.7649159
玉の湯,https://www.1010.or.jp/map/item/item-cnt-227,550,東京都足立区綾瀬２−３７−４,03-3602-2430,金曜、第１木曜,１５：００−２２：００,35.7598306999999,139.829360899999
富士の湯,https://www.1010.or.jp/map/item/item-cnt-234,550,東京都足立区東和４−１５−１０,03-3628-8550,火曜祝日は営業,１４：４５−２３：３０,35.7735735,139.840533999999
松乃湯,https://www.1010.or.jp/map/item/item-cnt-235,550,東京都足立区保木間５−５−１０,03-3884-1930,水曜祝日の場合は翌日休,１５：３０−２１：００,35.8026695,139.802058799999
寿湯,https://www.1010.or.jp/map/item/item-cnt-241,550,東京都葛飾区東四つ木４−１９−１４,03-3697-4497,金曜,１５：１０−２３：３０,35.7331454,139.8387896
富の湯,https://www.1010.or.jp/map/item/item-cnt-242,550,東京都葛飾区立石２−１９−６,03-3693-7809,月曜,１５：００−２２：３０,35.7378394,139.8405308
成弘湯,https://www.1010.or.jp/map/item/item-cnt-244,550,東京都葛飾区立石６−３２−１９,03-3697-6843,金曜,１５：００−２３：００,35.7431525999999,139.852690199999
アクアドルフィンランド,https://www.1010.or.jp/map/item/item-cnt-245,550,東京都葛飾区立石７−１６−３,03-3693-2641,木曜祝日は営業,１５：００−２４：００,35.740889,139.8499656
喜久の湯,https://www.1010.or.jp/map/item/item-cnt-246,550,東京都葛飾区東立石２−２１−１６,03-3691-3981,金曜,１５：００−２３：００,35.7327926,139.8507133
末広湯,https://www.1010.or.jp/map/item/item-cnt-247,550,東京都葛飾区宝町１−２−３０,03-3693-3310,火曜,１６：００−２３：００,35.740767,139.836342
金町湯,https://www.1010.or.jp/map/item/item-cnt-256,550,東京都葛飾区金町５−１４−９,03-6326-3805,水曜、木曜、金曜,１６：００−２２：００（最終受付２１：３０）,35.7683521,139.865862699999
栄湯（葛飾）,https://www.1010.or.jp/map/item/item-cnt-257,550,東京都葛飾区高砂８−１５−１２,03-3607-1427,月曜、第2・4火曜,１６：００−２３：００,35.7553287,139.8675272
富士の湯,https://www.1010.or.jp/map/item/item-cnt-258,550,東京都葛飾区亀有２−５−７,03-3602-3797,木曜,１５：３０−２２：００,35.7578202,139.8497451
ゆートピア２１,https://www.1010.or.jp/map/item/item-cnt-259,550,東京都葛飾区亀有３−３０−１２,03-3602-5574,土曜,１６：００−２４：００,35.7656053,139.8489836
日の出湯,https://www.1010.or.jp/map/item/item-cnt-262,550,東京都葛飾区堀切１−１５−７,03-3697-3610,火曜、金曜,１５：３０−１９：００,35.7412972,139.8276404
富士の湯,https://www.1010.or.jp/map/item/item-cnt-266,550,東京都葛飾区堀切４−５８−２６,03-3602-2754,金曜、土曜,１５：３０−２２：００,35.7493099,139.8266704
寿湯,https://www.1010.or.jp/map/item/item-cnt-267,550,東京都葛飾区堀切６−８−６,03-3602-3586,水曜,１４：３０−２２：３０,35.7519485,139.8302642
吉の湯,https://www.1010.or.jp/map/item/item-cnt-268,550,東京都葛飾区堀切６−３３−５,03-3604-1401,火曜,１４：００−２２：００,35.7532621,139.8278227
美吉湯,https://www.1010.or.jp/map/item/item-cnt-269,550,東京都葛飾区東堀切２−２２−１３,03-3602-3391,火曜,１５：３０−２２：００,35.7515402999999,139.8371663
第四富士の湯（休業中）,https://www.1010.or.jp/map/item/item-cnt-273,550,東京都葛飾区宝町２−１１−８,03-3697-1925,金曜,１５：３０−２２：００,35.7460466,139.835475299999
辰己湯,https://www.1010.or.jp/map/item/item-cnt-275,550,東京都江戸川区平井１−１４−１,03-3684-8211,水曜不定休あり,１５：００−２３：３０,35.7024341,139.8492373
千代の湯（休業中）,https://www.1010.or.jp/map/item/item-cnt-277,550,東京都江戸川区平井４−１９−７,03-3681-3240,土曜、第１・第３火曜,１４：００−２２：００,35.7051033,139.8486011
吉野湯,https://www.1010.or.jp/map/item/item-cnt-278,550,東京都江戸川区平井４−２３−２,03-3681-6833,月曜、第１・第３火曜,１５：００−２４：００２４時までに退出してください,35.7071586,139.846265099999
中の湯,https://www.1010.or.jp/map/item/item-cnt-279,550,東京都江戸川区平井６−４２−１１,03-3612-1004,金曜,１５：００−２３：３０（入店受付２３：００まで）,35.7105527,139.8439041
つるの湯,https://www.1010.or.jp/map/item/item-cnt-281,550,東京都江戸川区船堀２−１１−１６,03-3689-0676,水曜,１５：３０−２４：００（最終入店２３：１５）,35.6834174,139.8596697
乙女湯,https://www.1010.or.jp/map/item/item-cnt-283,550,東京都江戸川区船堀７−３−１３,03-3689-1854,月曜祝日は翌日休,１５：００−２３：００日・祝日１４：００～２３：００,35.6784602,139.8689441
宝来湯,https://www.1010.or.jp/map/item/item-cnt-284,550,東京都江戸川区江戸川６−１２−１６,03-3680-7016,日曜、水曜,１７：００−２２：００,35.6752917,139.877046299999
小島湯（休業中）,https://www.1010.or.jp/map/item/item-cnt-286,550,東京都江戸川区西葛西１−７−３,03-3680-0942,土曜・不定休,１５：３０−２２：００,35.6733238,139.8526398
第二寿湯（休業中）,https://www.1010.or.jp/map/item/item-cnt-289,550,東京都江戸川区江戸川１−１０−２３,03-3670-6195,金曜,１６：００−２３：００,35.688043,139.903472
仁岸湯,https://www.1010.or.jp/map/item/item-cnt-297,550,東京都江戸川区中央２−７−２,03-3652-2307,火曜,１４：３０−２３：００,35.7079319,139.8724456
菅原湯,https://www.1010.or.jp/map/item/item-cnt-298,550,東京都江戸川区中央４−１９−２４,03-3651-1062,月曜,１５：３０−２２：００,35.7152922,139.873098
みどり湯,https://www.1010.or.jp/map/item/item-cnt-301,550,東京都江戸川区東小岩１−１７−１８,03-3659-5873,月曜祝日は営業,１５：００−２２：００,35.7217279,139.8923681
亀の湯,https://www.1010.or.jp/map/item/item-cnt-302,550,東京都江戸川区東小岩４−３３−１６,03-3658-6927,水曜、木曜,１５：３０−２２：００,35.730546,139.890031799999
友の湯,https://www.1010.or.jp/map/item/item-cnt-303,550,東京都江戸川区東小岩５−１−３,03-3659-8160,火曜,１３：００−２４：００※最終受付２３：３０,35.7293267,139.887595899999
島田浴場,https://www.1010.or.jp/map/item/item-cnt-304,550,東京都江戸川区南小岩４−６−５,03-3658-8147,土曜,１５：００−２２：００,35.72135,139.884290999999
イーストランド,https://www.1010.or.jp/map/item/item-cnt-309,550,東京都江戸川区西篠崎２−２３−１,03-3670-0945,月曜、第１・第３火曜,１４：３０−２３：００,35.7112546,139.897004199999
武蔵湯,https://www.1010.or.jp/map/item/item-cnt-313,550,東京都江戸川区西小岩１−６−１６,03-3673-4126,月曜祝日は翌日休,１４：００−２４：００,35.7304098,139.8766497
吉野湯,https://www.1010.or.jp/map/item/item-cnt-314,550,東京都江戸川区西小岩３−３６−２０,03-3657-3644,金曜、土曜,１５：００−２２：３０（完全閉店）,35.7379227,139.8789103
地蔵湯,https://www.1010.or.jp/map/item/item-cnt-315,550,東京都江戸川区北小岩２−１２−１１,03-3657-3371,土曜,１５：３０−２２：３０,35.7412916,139.883907
鶴の湯,https://www.1010.or.jp/map/item/item-cnt-316,550,東京都江戸川区北小岩７−４−１６,03-3658-5378,水曜,１５：００−２３：００（最終入店２２：３０）,35.7444772,139.8895898
熱海湯,https://www.1010.or.jp/map/item/item-cnt-322,550,東京都新宿区神楽坂３−６,03-3260-1053,土曜,１４：４５−２４：００,35.70056,139.740557
第三玉の湯,https://www.1010.or.jp/map/item/item-cnt-323,550,東京都新宿区白銀町１−４,03-3260-9326,水曜,１５：００−２５：３０,35.7029151,139.738415199999
柳湯,https://www.1010.or.jp/map/item/item-cnt-324,550,東京都新宿区市谷柳町２５番地,03-6265-0260,月曜、第２・４金曜,１４：３０−２３：００,35.6989735,139.7267189
弁天湯,https://www.1010.or.jp/map/item/item-cnt-325,550,東京都新宿区余丁町５−１,03-3357-7370,水曜祝日は翌日休,１４：３０−２５：００,35.6954903,139.7148813
大星湯,https://www.1010.or.jp/map/item/item-cnt-326,550,東京都新宿区市谷台町１８−３,03-3351-7625,月曜銭湯の日、しょうぶ湯、ゆず湯は営業,１５：００−２３：４５,35.6945099,139.717325599999
東宝湯,https://www.1010.or.jp/map/item/item-cnt-332,550,東京都新宿区新宿７−１１−５,03-6228-0993,金曜・第１木曜,１５：００−２４：００,35.698351,139.712006
万年湯,https://www.1010.or.jp/map/item/item-cnt-333,550,東京都新宿区大久保１−１５−１７,03-3200-4734,土曜,１５：００−２４：００,35.7010476,139.703424
金泉湯,https://www.1010.or.jp/map/item/item-cnt-335,550,東京都新宿区西早稲田２−１６−２０,03-3203-2427,月曜,１４：３０−２２：００,35.7097886,139.7124032
世界湯,https://www.1010.or.jp/map/item/item-cnt-336,550,東京都新宿区高田馬場３−８−３１,03-3371-2409,木曜,１５：００−２５：００,35.7147265,139.699704399999
新宿落合温泉 松の湯,https://www.1010.or.jp/map/item/item-cnt-339,550,東京都新宿区上落合３−９−１０,03-3368-2352,土曜,１５：３０−２４：００（最終入場２３：３０）,35.71156091884027,139.6836200502662
福の湯,https://www.1010.or.jp/map/item/item-cnt-341,550,東京都新宿区下落合４−２５−１０,03-3951-5925,月曜,１６：００−２４：００,35.7217338,139.6947573
ゆ～ザ中井,https://www.1010.or.jp/map/item/item-cnt-342,550,東京都新宿区中落合１−１３−８,03-3951-1289,木曜,１５：００−２５：００,35.7160593,139.689010999999
栄湯,https://www.1010.or.jp/map/item/item-cnt-343,550,東京都新宿区西落合２−６−２,03-3953-6562,月曜、金曜,１５：００−２４：００,35.7205523,139.6782195
改良湯,https://www.1010.or.jp/map/item/item-cnt-344,550,東京都渋谷区東２−１９−９,03-3400-5782,土曜,１２：００−２３：３０（最終入場受付２３：００）,35.6531702,139.709491999999
宝来湯,https://www.1010.or.jp/map/item/item-cnt-345,550,東京都渋谷区恵比寿３−３９−５,03-3440-4700,土曜,１６：００−２２：００,35.6438216,139.720841299999
広尾湯,https://www.1010.or.jp/map/item/item-cnt-346,550,東京都渋谷区広尾５−４−１６,03-3473-0624,水曜,１５：００−２４：００,35.6507347,139.721896499999
さかえ湯,https://www.1010.or.jp/map/item/item-cnt-347,550,東京都渋谷区東１−３１−１９,03-3407-1207,金曜（銭湯の日、しょうぶ湯、ゆず湯は営業）,１５：３０−２５：００女湯は２４：３０まで,35.6545449,139.7063312
観音湯,https://www.1010.or.jp/map/item/item-cnt-351,550,東京都渋谷区幡ケ谷２−４６−７,03-3377-5349,不定休,１４：００−２４：００,35.6792216,139.676469099999
第二かねき湯,https://www.1010.or.jp/map/item/item-cnt-353,550,東京都渋谷区本町１−３１−２,03-3377-2088,月曜,１６：００−２２：００,35.6809493,139.6808326
羽衣湯,https://www.1010.or.jp/map/item/item-cnt-354,550,東京都渋谷区本町３−２４−２０,03-3372-4118,金曜,１４：００−２５：３０日曜は１３時から営業,35.6920009,139.684379199999
仙石湯,https://www.1010.or.jp/map/item/item-cnt-356,550,東京都渋谷区西原２−２７−５,03-3466-7219,月曜,１６：００−２３：００,35.675075,139.678433
大黒湯（代々木上原）,https://www.1010.or.jp/map/item/item-cnt-357,550,東京都渋谷区西原３−２４−５,03-3485-1701,水曜,１５：００−２５：３０日曜は１２時から営業,35.6709144999999,139.6830966
中野温泉 天神湯,https://www.1010.or.jp/map/item/item-cnt-358,550,東京都中野区中野５−１０−１０,03-3387-2657,木曜、第１水曜,１５：００−２３：３０（最終受付２３：００）,35.706746,139.6715572
健康浴泉,https://www.1010.or.jp/map/item/item-cnt-359,550,東京都中野区東中野３−１７−３,03-3362-3524,水曜,１５：００−２４：３０最終入場２４：００,35.7084905,139.681456499999
松本湯,https://www.1010.or.jp/map/item/item-cnt-361,550,東京都中野区東中野５−２９−１２,03-3371-8392,木曜祝日は翌日休,１４：００−２４：００、日曜８：００−１２：００、１５：００−２４：００,35.711046,139.689600199999
照の湯,https://www.1010.or.jp/map/item/item-cnt-363,550,東京都中野区中央３−３０−６,03-3381-8051,土曜,１５：３０−２４：００,35.6986581,139.6726658
高砂湯,https://www.1010.or.jp/map/item/item-cnt-364,550,東京都中野区中央４−４９−２,03-3380-4126,月曜祝日は翌日休,１５：００−２４：３０,35.7018382,139.6696964
昭和浴場,https://www.1010.or.jp/map/item/item-cnt-365,550,東京都中野区中央５−２１−１２,03-3382-2414,水曜,１５：３０−２５：３０金曜は翌３時まで営業,35.6994632,139.6621331
クラブ湯,https://www.1010.or.jp/map/item/item-cnt-366,550,東京都中野区本町２−４７−５,03-3373-0570,土曜,１５：００−２４：３０,35.696303,139.680770899999
清春湯,https://www.1010.or.jp/map/item/item-cnt-369,550,東京都中野区弥生町２−１−９,03-3373-0440,不定休,１５：３０−２６：００,35.6904508,139.6769325
天然温泉 たからゆ,https://www.1010.or.jp/map/item/item-cnt-371,550,東京都中野区若宮１−４９−１,03-3330-4126,月曜（祝日の場合は翌日火曜休業）,１３：００−２４：００（最終入場２３：３０）,35.720122,139.648108399999
昭和湯,https://www.1010.or.jp/map/item/item-cnt-372,550,東京都中野区野方１−２１−１,03-3385-3886,土曜,１５：００−２４：３０,35.712159,139.657985599999
上越泉,https://www.1010.or.jp/map/item/item-cnt-373,550,東京都中野区野方１−５１−１０,03-3388-9445,金曜,１５：３０−２５：００,35.7110174,139.6548914
大和湯,https://www.1010.or.jp/map/item/item-cnt-374,550,東京都中野区大和町４−１−３,03-3339-5089,金曜,１５：００−２３：００（最終入場２２：３０）,35.7131172,139.6485503
中野寿湯温泉,https://www.1010.or.jp/map/item/item-cnt-375,550,東京都中野区新井１−１４−１３,03-3387-2047,火曜,１６：００−２４：３０,35.7112232,139.667010099999
新越泉,https://www.1010.or.jp/map/item/item-cnt-376,550,東京都中野区新井５−１７−２,03-3386-4917,月曜,１５：００−２４：００,35.7153479,139.6701069
一の湯,https://www.1010.or.jp/map/item/item-cnt-378,550,東京都中野区沼袋１−３９−１０,03-3386-2836,水曜,男湯１６：００−２６：００、女湯１６：００−２５：３０,35.7202361,139.663715499999
えごた湯,https://www.1010.or.jp/map/item/item-cnt-379,550,東京都中野区江古田３−５−１２,03-3385-7800,月曜（祝日の場合は翌火曜休み）,１５：００−２４：００（最終入店は23：30まで。※サウナは23：00で受付を締め切ります）,35.7260663,139.6690902
香藤湯,https://www.1010.or.jp/map/item/item-cnt-381,550,東京都杉並区高円寺南５−１−７,03-3316-4514,金曜,１６：００−２４：００,35.7019905999999,139.6607692
なみのゆ,https://www.1010.or.jp/map/item/item-cnt-382,550,東京都杉並区高円寺北３−２９−２,03-3337-1861,水曜、土曜,１５：００−２４：００日曜は８：００−１２：００も営業,35.7084731,139.646056199999
小杉湯,https://www.1010.or.jp/map/item/item-cnt-383,550,東京都杉並区高円寺北３−３２−１７,03-3337-6198,木曜,平日１４：００−２５：３０、土・日・祝日は朝８：００−２５：３０,35.7080815,139.6485893
玉の湯,https://www.1010.or.jp/map/item/item-cnt-384,550,東京都杉並区阿佐谷北１−１３−７,03-3338-7860,月・火曜,１５：００−２５：００,35.7070733,139.639765099999
阿佐ヶ谷温泉 天徳泉,https://www.1010.or.jp/map/item/item-cnt-385,550,東京都杉並区阿佐谷北２−２２−１,03-3338-6018,水曜,１５：００−２５：００,35.7057678,139.6321964
杉並湯,https://www.1010.or.jp/map/item/item-cnt-387,550,東京都杉並区梅里１−１３−７,03-3312-1221,月曜,１５：４５−２４：００,35.697266,139.650381299999
ゆ家和ごころ　吉の湯,https://www.1010.or.jp/map/item/item-cnt-388,550,東京都杉並区成田東１−１４−７,03-3315-1766,月曜,１３：３０−２２：００（最終入場２１：３０）土曜・日曜は8：00～11：00も営業,35.6896501,139.639054799999
第二宝湯,https://www.1010.or.jp/map/item/item-cnt-392,550,東京都杉並区本天沼２−７−１３,03-3390-8623,金曜,１５：３０−２４：００,35.7117004,139.624594099999
井草湯,https://www.1010.or.jp/map/item/item-cnt-393,550,東京都杉並区下井草５−３−１５,03-6913-7226,月曜,１４：３０−２２：３０（最終入店２２：００）,35.7196881,139.614769799999
秀の湯,https://www.1010.or.jp/map/item/item-cnt-395,550,東京都杉並区桃井４−２−９,03-3399-6112,木曜,１５：３０−２５：３０,35.7123859,139.6026378
文化湯,https://www.1010.or.jp/map/item/item-cnt-396,550,東京都杉並区西荻北４−３−１０,03-3390-1051,月曜、第２・第４火曜,１６：００−２４：００,35.706778,139.5962941
天狗湯,https://www.1010.or.jp/map/item/item-cnt-398,550,東京都杉並区西荻南１−２１−４,03-3333-9461,火曜・金曜,１５：４５−２３：４５,35.6989679,139.6013966
GOKURAKUYA,https://www.1010.or.jp/map/item/item-cnt-399,550,東京都杉並区上荻２−４０−１４,03-3390-6764,火曜,１６：００−２４：００（最終受付２３：００）,35.7082422999999,139.6138785
大黒湯,https://www.1010.or.jp/map/item/item-cnt-401,550,東京都杉並区和泉１−３４−２,03-3328-2137,火曜、水曜,１６：００−２２：００,35.6760631,139.657343099999
吹上湯,https://www.1010.or.jp/map/item/item-cnt-404,550,東京都品川区北品川１−２５−１２,03-3471-3726,水曜・土曜,１５：３０−２２：３０,35.6206861,139.7403488
北品川温泉 天神湯,https://www.1010.or.jp/map/item/item-cnt-405,550,東京都品川区北品川２−２３−９,03-3471-3562,金曜,１５：００−２３：００最終入場２２：３０,35.6178588,139.7433376
西品川温泉 宮城湯,https://www.1010.or.jp/map/item/item-cnt-407,550,東京都品川区西品川２−１８−４,03-3491-4856,水曜,平日１５：００−２４：００、土曜・祝日１３：００−２４：００、日曜１１：００−２４：００,35.6117701,139.726183499999
高松湯,https://www.1010.or.jp/map/item/item-cnt-409,550,東京都品川区上大崎３−５−４,03-3441-8602,月曜,１６：００−２２：００,35.6345033,139.7193945
水神湯,https://www.1010.or.jp/map/item/item-cnt-412,550,東京都品川区南大井６−９−１０,03-3761-1425,月曜（祝日の場合は翌日休）,１５：００−２２：００（最終入店２１：３０）,35.591961858107005,139.7341013511001
すえひろ湯,https://www.1010.or.jp/map/item/item-cnt-413,550,東京都品川区大井１−４２−４,090-4326-0485,火曜,１５：００−２５：００、土・日曜・祝日は１０：００−２５：００,35.6040212,139.7322279
東京浴場,https://www.1010.or.jp/map/item/item-cnt-414,550,東京都品川区大井２−２２−１６,03-3771-4959,月曜（※12月は不定休）,１５：００−２２：００,35.6035739,139.7287698
みどり湯,https://www.1010.or.jp/map/item/item-cnt-415,550,東京都品川区西大井１−７−２６,03-3774-0744,火曜,１４：４５−２４：００,35.6009574,139.723897999999
ピース湯,https://www.1010.or.jp/map/item/item-cnt-416,550,東京都品川区西大井６−１５−１６,03-3772-5281,月曜、火曜祝日は営業,１５：３０−２４：００,35.599874,139.7159626
武蔵小山温泉　清水湯,https://www.1010.or.jp/map/item/item-cnt-417,550,東京都品川区小山３−９−１,03-3781-0575,月曜祝日の場合は営業,１２：００−２４：００日曜は８：００−２４：００,35.6201713,139.7075432
東京浴場,https://www.1010.or.jp/map/item/item-cnt-418,550,東京都品川区小山６−７−２,03-6421-5739,火曜祝日の場合は翌日休,５：００−１２：００、１４：００−２６：００,35.61503,139.6996774
中延温泉 松の湯,https://www.1010.or.jp/map/item/item-cnt-423,550,東京都品川区戸越６−２３−１５,03-3783-1832,月曜祝日月曜は営業（１５：００−２４：００）,１５：００−２４：００日曜１０：００−２４：００,35.6060593,139.7146846
星の湯,https://www.1010.or.jp/map/item/item-cnt-425,550,東京都品川区中延６−１−１０,03-3781-1918,土曜,１５：００−２４：３０入店は２４：００まで,35.6037095,139.710671199999
富士見湯,https://www.1010.or.jp/map/item/item-cnt-426,550,東京都品川区東中延１−３−８,03-3782-6120,水曜,１５：００−２３：３０、日曜１２：００−２３：３０,35.6115003,139.7142429
新生湯,https://www.1010.or.jp/map/item/item-cnt-429,550,東京都品川区旗の台４−５−１８,03-3781-3476,月曜祝日月曜は営業,１５：３０−２４：３０土曜は15～24時半、日曜は11～24時、祝日月曜は13～24時,35.6027317,139.7056606
大盛湯,https://www.1010.or.jp/map/item/item-cnt-431,550,東京都品川区二葉２−４−４,03-3788-8477,金曜,１５：００−２３：００,35.6048154,139.7261254
竹の湯,https://www.1010.or.jp/map/item/item-cnt-432,550,東京都大田区羽田１−１２−１６,03-3741-2509,水曜,１６：００−２３：３０,35.5503258,139.7428277
重の湯,https://www.1010.or.jp/map/item/item-cnt-433,550,東京都大田区羽田３−１６−１０,03-3743-3659,火曜、土曜,１５：００−２４：００,35.546007,139.7437029
宝湯,https://www.1010.or.jp/map/item/item-cnt-437,550,東京都大田区東糀谷３−４−８,03-3743-2027,月曜、木曜,１５：３０−２３：３０日曜、祝日は１５時から営業,35.5535891,139.741747
幸の湯,https://www.1010.or.jp/map/item/item-cnt-438,550,東京都大田区西糀谷１−２５−１５,03-3741-4321,月曜,６：００−１１：００、１４：００−２３：００,35.5576355,139.7325584
観音湯,https://www.1010.or.jp/map/item/item-cnt-439,550,東京都大田区西糀谷３−２４−１６,03-3741-9410,不定休月末に翌月休告知,１６：００−２３：３０,35.5540584,139.7360334
蒲田福の湯,https://www.1010.or.jp/map/item/item-cnt-441,550,東京都大田区蒲田１−１２−１５,03-3732-1245,木曜,１５：３０−２４：３０,35.5661061,139.7202754
寿湯,https://www.1010.or.jp/map/item/item-cnt-443,550,東京都大田区蒲田３−８−６,03-3735-9400,月曜,１５：３０−２３：４５,35.5640481999999,139.7241669
蒲田温泉,https://www.1010.or.jp/map/item/item-cnt-444,550,東京都大田区蒲田本町２−２３−２,03-3732-1126,無休,１０：００−２４：００,35.5558882,139.718079
大正湯,https://www.1010.or.jp/map/item/item-cnt-445,550,東京都大田区東蒲田１−２１−６,03-3731-6944,金曜,１６：００−２３：３０,35.5632899999999,139.727225099999
改正湯,https://www.1010.or.jp/map/item/item-cnt-446,550,東京都大田区西蒲田５−１０−５,03-3731-7078,金曜,１５：００−２３：３０,35.5670476,139.7139733
はすぬま温泉,https://www.1010.or.jp/map/item/item-cnt-448,550,東京都大田区西蒲田６−１６−１１,03-3734-0081,火曜,１５：００−２４：００,35.5654562,139.7086157
天神湯,https://www.1010.or.jp/map/item/item-cnt-449,550,東京都大田区南蒲田１−７−２３,03-3731-7069,木曜,１４：００−２４：００土曜、祝日は１２時から、日曜は９時から営業,35.5593017,139.727008599999
ヌーランド さがみゆ,https://www.1010.or.jp/map/item/item-cnt-452,550,東京都大田区仲六郷２−７−５,03-3739-1126,無休,１０：００−２３：００火曜日は入浴のみ営業（休憩施設はｃｌｏｓｅ）,35.5522054,139.714632299999
照の湯,https://www.1010.or.jp/map/item/item-cnt-454,550,東京都大田区仲六郷３−２３−６,090-8490-8272,水曜、木曜,１５：００−２２：００土、日、祝は１０時から営業,35.5458342,139.7111247
太平湯,https://www.1010.or.jp/map/item/item-cnt-456,550,東京都大田区南六郷１−５−１７,03-3738-1665,水曜、金曜,１５：３０−２１：３０,35.5504473,139.7215651
第五相模湯,https://www.1010.or.jp/map/item/item-cnt-457,550,東京都大田区南六郷２−７−２０,03-3738-6249,月曜,１５：３０−２４：００日曜は９～１２時も営業。日曜は２３時３０分まで。,35.5478866,139.7198848
草津湯,https://www.1010.or.jp/map/item/item-cnt-458,550,東京都大田区東矢口２−７−２１,03-3758-2375,不定休,１２：００−２４：００,35.565284,139.6998806
天狗湯,https://www.1010.or.jp/map/item/item-cnt-463,550,東京都大田区大森西２−１５−３,03-3761-0675,木曜、第三水曜,１４：３０−２２：３０,35.5777049,139.7302379
大森湯,https://www.1010.or.jp/map/item/item-cnt-464,550,東京都大田区大森西３−８−１７,03-3764-7844,第２、第４、第５火曜,１５：００−２３：００,35.5735498,139.7301548
あたり湯,https://www.1010.or.jp/map/item/item-cnt-465,550,東京都大田区大森西３−１１−２７,03-3761-7601,月曜,１５：３０−２３：３０,35.5738274,139.725435599999
久松温泉（休業中）,https://www.1010.or.jp/map/item/item-cnt-467,550,東京都大田区池上３−３１−１６,03-3751-0119,火曜祝日は翌日休,１０：００−２４：００,35.57378,139.7027464
桜館,https://www.1010.or.jp/map/item/item-cnt-468,550,東京都大田区池上６−３５−５,03-3754-2637,無休,１２：００−２５：００土、日、祝日は１０時から営業,35.5684919,139.703171699999
久が原湯,https://www.1010.or.jp/map/item/item-cnt-469,550,東京都大田区久が原２−１４−１５,03-3754-4452,月曜、第４火曜祝日の場合は翌日休,１４：００−２４：００土・日・祝日は１２：００より営業,35.5822621,139.697610199999
COCOFURO（ココフロ）ますの湯,https://www.1010.or.jp/map/item/item-cnt-473,550,東京都大田区南久が原２−１−２３,03-6410-4797,3・6・9・12月の第2木曜,６：００−２４：００最終入館２３：３０,35.5799429,139.685817199999
第二栗の湯,https://www.1010.or.jp/map/item/item-cnt-474,550,東京都大田区鵜の木２−４６−１,03-3757-1450,金曜,１４：００−２４：００,35.573138,139.678861
明神湯,https://www.1010.or.jp/map/item/item-cnt-475,550,東京都大田区南雪谷５−１４−７,03-3729-2526,５、１５、２５日（日曜、祝日の場合は翌日休）,１６：００−２２：００,35.5896248,139.6900993
調布弁天湯,https://www.1010.or.jp/map/item/item-cnt-477,550,東京都大田区北嶺町１０−１１,03-3720-4434,月曜、火曜、木曜,１５：３０−２３：００,35.5863224,139.682244699999
八幡湯,https://www.1010.or.jp/map/item/item-cnt-479,550,東京都世田谷区太子堂５−２１−４,03-3422-3275,金曜、土曜、第３木曜,１５：００−２３：００,35.6481167,139.6662155
弘善湯,https://www.1010.or.jp/map/item/item-cnt-482,550,東京都世田谷区下馬２−３６−１５,03-3410-4126,土曜,１５：３０−２４：００,35.6410484,139.6740511
富士見湯（休業中）,https://www.1010.or.jp/map/item/item-cnt-486,550,東京都世田谷区太子堂２−３３−１０,03-3421-0771,木曜,１５：００−２４：００,35.647037,139.672126
千代の湯（休業中）,https://www.1010.or.jp/map/item/item-cnt-487,550,東京都世田谷区三軒茶屋２−１２−７,03-3410-2535,金曜,１６：００−２４：００,35.6426314,139.6695154
世田谷温泉　四季の湯,https://www.1010.or.jp/map/item/item-cnt-488,550,東京都世田谷区桜丘２−１８−２６,03-3427-6312,月曜,１５：００−２３：００,35.6453692,139.625052399999
鶴の湯,https://www.1010.or.jp/map/item/item-cnt-489,550,東京都世田谷区豪徳寺１−２３−２０,03-3426-2360,火曜、水曜,１５：００−２３：００,35.6522547,139.6464671
宇田川湯,https://www.1010.or.jp/map/item/item-cnt-491,550,東京都世田谷区羽根木１−１４−１１,03-3328-2574,月曜、金曜、第３土曜,１５：５０−２３：００,35.6663588,139.6594545
月見湯温泉,https://www.1010.or.jp/map/item/item-cnt-493,550,東京都世田谷区赤堤５−３６−１６,03-3321-6738,月曜、火曜,１５：３０−２３：００,35.6653777,139.635833899999
山崎湯,https://www.1010.or.jp/map/item/item-cnt-494,550,東京都世田谷区梅丘２−１４−１５,03-3427-1856,土曜,１４：３０−２２：００,35.6502578,139.6536638
新寿湯,https://www.1010.or.jp/map/item/item-cnt-495,550,東京都世田谷区代田５−１１−７,03-3421-1126,月曜,１６：００−２４：００,35.6599318,139.6604185
北沢湯,https://www.1010.or.jp/map/item/item-cnt-497,550,東京都世田谷区上北沢４−１０−１１,03-3302-5265,水曜,１５：３０−２３：００,35.6686603,139.625859399999
増穂湯,https://www.1010.or.jp/map/item/item-cnt-499,550,東京都世田谷区南烏山５−２１−１５,03-3300-2664,金曜,１４：４５−２２：００,35.6661711,139.602175399999
湯パークレビランド,https://www.1010.or.jp/map/item/item-cnt-502,550,東京都世田谷区祖師谷１−２４−１,03-3484-6768,火曜祝日は翌日休,１６：００−２４：００,35.6462605,139.613583899999
松の湯（奥沢）,https://www.1010.or.jp/map/item/item-cnt-507,550,東京都世田谷区奥沢４−２４−２,03-3720-5253,火・水曜,１５：２０−２２：００,35.6022919,139.6714331
藤の湯,https://www.1010.or.jp/map/item/item-cnt-509,550,東京都世田谷区玉川台２−１−１６,03-3700-3920,木曜、金曜,１５：３０−２３：００,35.6220059,139.6310309
栄湯,https://www.1010.or.jp/map/item/item-cnt-511,550,東京都世田谷区用賀４−３１−３,03-3700-8102,月曜、火曜,１６：００−２３：３０,35.6290799,139.6342524
文化浴泉,https://www.1010.or.jp/map/item/item-cnt-512,550,東京都目黒区東山３−６−８,03-3792-4126,水曜,月・火・木・金曜１４：００−２５：００（最終受付２４：３０）、土・日曜１０：００−２４：００（最終受付２３：３０）,35.6497699,139.6872997
光明泉,https://www.1010.or.jp/map/item/item-cnt-513,550,東京都目黒区上目黒１−６−１,03-3463-9793,不定休,１５：００−２５：００（最終受付２４：３０）,35.6455653,139.7002542
大黒湯（休業中）,https://www.1010.or.jp/map/item/item-cnt-514,550,東京都目黒区上目黒４−２５−１０,03-3712-2641,第２木曜,１４：００−２４：００、土曜・日曜・祝日８：００−２４：００,35.6417793,139.689688599999
大塚湯,https://www.1010.or.jp/map/item/item-cnt-518,550,東京都目黒区目黒４−２１−１９,03-3791-0346,土曜,１５：００−２１：３０（最終受付）,35.6335944,139.6988519
旭湯,https://www.1010.or.jp/map/item/item-cnt-521,550,東京都目黒区平町１−２５−２３,03-3717-2641,月曜,１５：３０−２３：００,35.6171513,139.6772349
千代の湯,https://www.1010.or.jp/map/item/item-cnt-526,550,東京都目黒区鷹番２−２０−３,03-3712-1271,月曜,１５：３０−２４：００（最終入場２３：３０）,35.6295612,139.6867365
湯〜ゆランドあずま,https://www.1010.or.jp/map/item/item-cnt-528,550,東京都豊島区西池袋４−１３−９,03-3986-6997,火曜,１５：３０−２５：３０日曜は１４：００から営業,35.7285667,139.6995259
妙法湯,https://www.1010.or.jp/map/item/item-cnt-529,550,東京都豊島区西池袋４−３２−４,03-3957-8433,月曜,１５：００−２５：００,35.7270972,139.697095699999
五色湯,https://www.1010.or.jp/map/item/item-cnt-530,550,東京都豊島区目白５−２１−４,03-3952-7237,水曜,１６：００−２４：００、土・日曜１５：００−２４：００入浴受付最終23時30分、サウナ最終受付23時,35.7249890999999,139.696101499999
健康ランド末広湯,https://www.1010.or.jp/map/item/item-cnt-533,550,東京都豊島区千早２−１４−１３,03-3957-6274,金曜祝日は営業,１６：００−２４：３０日祝は１５：００～,35.7328158,139.692398599999
小松湯,https://www.1010.or.jp/map/item/item-cnt-537,550,東京都豊島区池袋本町３−１−３,03-3983-0540,水曜、第１木曜,１６：００−２４：００最終入店２３：３０,35.7416437,139.712177
稲荷湯,https://www.1010.or.jp/map/item/item-cnt-540,550,東京都豊島区上池袋１−９−１７,03-3918-6712,水曜,１５：５０−２５：００,35.7346616,139.71901
ゆラックス,https://www.1010.or.jp/map/item/item-cnt-541,550,東京都豊島区上池袋２−１０−６,,土曜,平日１６：００−２１：３０（最終受付２０：３０）、日曜・祝日１６：００−２１：００（最終受付２０：００）,35.7355502,139.7165296
平和湯,https://www.1010.or.jp/map/item/item-cnt-542,550,東京都豊島区池袋２−６４−１１,03-3971-7820,月曜、第3火曜,１５：００−２５：００（最終受付２４：３０）,35.7353027,139.711243999999
前田湯,https://www.1010.or.jp/map/item/item-cnt-545,550,東京都豊島区池袋４−１２−２５,03-3971-2261,日曜,１５：３０−２４：００,35.7391604,139.706802599999
宮下湯,https://www.1010.or.jp/map/item/item-cnt-546,550,東京都豊島区巣鴨１−３０−２,03-3941-0379,木曜,１５：００−２４：００,35.7319731,139.7377755
巣鴨湯,https://www.1010.or.jp/map/item/item-cnt-547,550,東京都豊島区巣鴨４−１３−９,03-6826-9126,火曜,１５：００−２４：００、土日祝１２：００−２４：００,35.7384169,139.7301452
やすらぎの湯　ニュー椿,https://www.1010.or.jp/map/item/item-cnt-548,550,東京都豊島区巣鴨５−２０−３,03-3918-1720,木曜,１５：００−２４：００,35.7414388,139.731094999999
大塚記念湯,https://www.1010.or.jp/map/item/item-cnt-552,550,東京都豊島区南大塚３−３８−１５,03-3986-0126,金曜,１４：００−２５：００２Ｆサウナ（別料金）,35.7299872,139.7268957
香取湯,https://www.1010.or.jp/map/item/item-cnt-554,550,東京都豊島区駒込６−１６−６,03-3917-5582,金曜,１４：３０−２４：００,35.7399973,139.742994299999
えびす湯,https://www.1010.or.jp/map/item/item-cnt-556,550,東京都北区滝野川１−１−２０,03-3910-7392,月曜祝日は翌日休,１５：００−２４：００,35.7487658,139.7387609
鶴の湯,https://www.1010.or.jp/map/item/item-cnt-557,550,東京都北区滝野川１−１８−８,03-3910-7244,金曜,１５：００−２４：００日曜は１４：００から営業,35.7470938,139.7369638
飛鳥山温泉,https://www.1010.or.jp/map/item/item-cnt-558,550,東京都北区滝野川２−４３−２,03-3910-1380,火曜、水曜,１４：３０−２４：００,35.7493657,139.734208399999
滝野川浴場,https://www.1010.or.jp/map/item/item-cnt-559,550,東京都北区滝野川３−１７−５,03-3917-6423,火曜,１６：００−２４：００日曜、祝日は１５：００から営業,35.7453952,139.7281811
クアパレスゆうゆう,https://www.1010.or.jp/map/item/item-cnt-561,550,東京都北区滝野川７−１１−８,03-3916-0689,金曜１月１日、３日は休業,１３：３０−２４：００１月２日は朝湯を実施,35.7447661,139.7210678
大黒湯,https://www.1010.or.jp/map/item/item-cnt-565,550,東京都北区上中里２−３１−１２,03-3919-4476,火曜,１５：００−２３：００日祝は１４：００−２３：００,35.7476494,139.747860299999
松の湯,https://www.1010.or.jp/map/item/item-cnt-566,550,東京都北区田端４−３−９　繁栄ビル２階,03-3823-2203,月曜、木曜祝日は翌日休,１５：００−２３：３０,35.7364699,139.752230999999
豊島湯,https://www.1010.or.jp/map/item/item-cnt-569,550,東京都北区豊島３−１９−７,03-3919-0705,土曜,月～金曜15：30−23：00、日曜・祝日15：00−23：00（最終入場22：30）※ミストサウナは開店から22：00まで,35.7610814,139.7459986
宝泉湯,https://www.1010.or.jp/map/item/item-cnt-571,550,東京都北区豊島８−２３−５,03-3919-3906,水曜,１６：００−２２：３０,35.7663446,139.7402544
金星湯,https://www.1010.or.jp/map/item/item-cnt-572,550,東京都北区王子４−１−３,03-3919-1637,金曜,１５：００−２５：００、日曜８：００−１２：００／１５：００−２２：００,35.7609255,139.733177399999
やなぎ湯,https://www.1010.or.jp/map/item/item-cnt-575,550,東京都北区東十条３−５−１５,03-3919-0364,月曜（祝日の場合は翌日休）,１４：３０−２３：００,35.7650389,139.730874699999
COCOFURO（ココフロ）かが浴場,https://www.1010.or.jp/map/item/item-cnt-577,550,東京都北区王子本町２−２３−９ 2階,03-5948-5262,3・5・9・11月の第3火曜,６：００−２４：００（最終受付２３：３０）,35.75537592057847,139.73189445767184
十條湯,https://www.1010.or.jp/map/item/item-cnt-578,550,東京都北区十条仲原１−１４−２,03-3900-4600,金曜,１５：００－２３：００日曜は８：００－１２：００も営業,35.7628444,139.7201201
岩の湯,https://www.1010.or.jp/map/item/item-cnt-579,550,東京都北区岩淵町３１−２,03-3901-5405,金曜,１５：３０−２３：３０,35.7845443,139.7234719
お玉湯,https://www.1010.or.jp/map/item/item-cnt-580,550,東京都北区赤羽北１−２５−１３,03-3909-5884,月曜、水曜（月曜祝日の場合は火曜）,１５：４５−２２：００,35.7867715,139.714480999999
富士の湯,https://www.1010.or.jp/map/item/item-cnt-581,550,東京都北区西が丘１−２５−１４,03-3900-0718,土曜、日曜、不定休 水曜　※当面の間、毎週月曜のみ営業,１５：３０−２１：３０（最終受付２１：００）,35.7708238,139.7127067
藤の湯,https://www.1010.or.jp/map/item/item-cnt-582,550,東京都北区神谷３−２３−１２,03-3901-3078,木曜,１４：３０−２３：３０12月は朝風呂（8：00−12：00）も営業,35.772455,139.730276
平和湯,https://www.1010.or.jp/map/item/item-cnt-583,550,東京都北区神谷３−４１−１３,03-3901-5660,金曜,１５：００−２４：００,35.7704578,139.732535399999
ＨＯＴランドみどり湯,https://www.1010.or.jp/map/item/item-cnt-585,550,東京都北区志茂３−２５−９,03-5249-1426,月曜（祝日は翌日休）月に１度連休あり,１５：００−２３：００日曜１３：００−２３：００,35.7795176,139.7332851
テルメ末広,https://www.1010.or.jp/map/item/item-cnt-586,550,東京都北区志茂５−１６−１４,03-3901-6316,金曜（不定期連休あり）,１４：００−２３：００,35.7825143,139.731118499999
露天風呂ゆの花,https://www.1010.or.jp/map/item/item-cnt-587,550,東京都北区浮間４−６−１０,03-5392-1233,月曜,１５：００−２３：００最終入店時間２２：４０,35.788754,139.6972547
ゆーらんど,https://www.1010.or.jp/map/item/item-cnt-588,550,東京都板橋区板橋１−４１−１３,03-3579-1126,月曜（祝日でも月曜休）,１３：３０−２５：００,35.7488653,139.715415399999
金松湯,https://www.1010.or.jp/map/item/item-cnt-591,550,東京都板橋区大山東町５５−３,03-3961-0007,火曜,１５：３０−２３：３０,35.7491647,139.7038053
第二富士見湯,https://www.1010.or.jp/map/item/item-cnt-592,550,東京都板橋区幸町２０−５,03-3955-5622,土曜,１６：００−２４：００日曜、祝日は１５時から営業,35.74419,139.699642
梅の湯（休業中）,https://www.1010.or.jp/map/item/item-cnt-593,550,東京都板橋区仲宿２２−６,03-3961-8378,水曜,１５：３０−２４：００,35.7556977,139.7107906
愛染湯,https://www.1010.or.jp/map/item/item-cnt-595,550,東京都板橋区大和町４６−７,03-3962-4576,金曜、第４木曜,14：30－22：20（女湯閉店22：30／男湯閉店23：00)男性サウナは2時間まで、開店から22：30まで利用可（受付は22：00まで）,35.7566001,139.703966199999
一の湯,https://www.1010.or.jp/map/item/item-cnt-596,550,東京都板橋区栄町２０−１１,03-3961-6085,水曜,１４：３０−２３：３０（最終受付２３：００）,35.753367,139.702872
アクアセゾン,https://www.1010.or.jp/map/item/item-cnt-599,550,東京都板橋区常盤台３−１４−６,03-3967-4126,金曜,１３：３０−２３：００日曜は１２：００～２３：００,35.7616405,139.6843262
パブリバ八光,https://www.1010.or.jp/map/item/item-cnt-601,550,東京都板橋区東新町２−５６−１３,03-3956-6276,水曜,１５：３０−２３：３０,35.7532607,139.683323699999
寿湯,https://www.1010.or.jp/map/item/item-cnt-602,550,東京都板橋区上板橋１−２１−４,03-3933-4911,火曜※月1回連休あり（その都度掲示）,１５：３０−２３：００,35.7617459,139.6754769
湯～ハウス,https://www.1010.or.jp/map/item/item-cnt-603,550,東京都板橋区上板橋３−１８−１２,03-3932-1856,金曜、月末の木曜,１５：００−２３：３０（最終入店２３：００）サウナ１５：００−２２：００（最終入店２１：３０）,35.7652788,139.6731271
大黒湯,https://www.1010.or.jp/map/item/item-cnt-605,550,東京都板橋区大谷口１−４７−５,03-3974-2953,火曜,１５：００−２４：００,35.7429729,139.689395699999
クアパレス藤,https://www.1010.or.jp/map/item/item-cnt-606,550,東京都板橋区南町３９−１０,03-3959-1126,水曜、第1木曜,１５：３０−２４：００日曜・祝日１４：００−２４：００,35.7408515,139.699556
みやこ湯,https://www.1010.or.jp/map/item/item-cnt-607,550,東京都板橋区熊野町３４−１４,03-3956-0631,金曜、第3木曜,１５：３０−２４：００,35.7432571,139.704938699999
松の湯,https://www.1010.or.jp/map/item/item-cnt-611,550,東京都板橋区志村３−２８−６,03-3966-3911,金曜、隔週土曜,１４：００−２２：００,35.7787107,139.687261499999
紀の国湯,https://www.1010.or.jp/map/item/item-cnt-612,550,東京都板橋区坂下２−３３−４,03-3960-2536,月曜,１５：００−２３：００,35.7843486,139.6798842
清水湯,https://www.1010.or.jp/map/item/item-cnt-613,550,東京都板橋区大原町２４−３,03-3960-3941,月曜祝日は翌日休,１５：３０−２２：３０※日曜・祝日は15時から営業,35.7680626,139.698599699999
初音湯,https://www.1010.or.jp/map/item/item-cnt-614,550,東京都板橋区成増３−４１−１６,03-3930-8668,不定休,１５：００−２３：００,35.7824362,139.6294328
岩の湯,https://www.1010.or.jp/map/item/item-cnt-616,550,東京都板橋区赤塚６−１２−２,03-3930-3750,木曜、金曜,１５：３０−２３：００日曜は１３～２１時,35.7747212,139.644073599999
ときわ健康温泉,https://www.1010.or.jp/map/item/item-cnt-617,550,東京都板橋区中台１−２５−５,03-3933-1487,月曜祝日は翌日休,１４：００−２３：００日曜は９：００−２３：００,35.7665677,139.6793126
第一金乗湯,https://www.1010.or.jp/map/item/item-cnt-618,550,東京都板橋区若木１−１９−６,03-3933-4357,不定休,１６：００−２４：００日曜は１５時から営業,35.7687534,139.671179899999
功泉湯,https://www.1010.or.jp/map/item/item-cnt-619,550,東京都板橋区西台２−１７−２０,03-3933-2904,水曜,１５：００−２３：００,35.7795296,139.6730766
黄金湯,https://www.1010.or.jp/map/item/item-cnt-622,550,東京都板橋区徳丸５−２−２,03-5398-3406,月曜祝日の場合は翌日休,１５：００−２２：００,35.7763547,139.658025299999
江古田湯,https://www.1010.or.jp/map/item/item-cnt-623,550,東京都練馬区旭丘１−１７−３,03-3953-9275,水曜（昼湯開催時はSNSで告知）,１５：００−２３：００,35.7325127999999,139.6761917
浅間湯,https://www.1010.or.jp/map/item/item-cnt-625,550,東京都練馬区栄町３８−３,03-3991-2406,金曜,１６：００−２３：５０,35.7390593,139.671894599999
川場湯,https://www.1010.or.jp/map/item/item-cnt-626,550,東京都練馬区桜台３−１５−１４,03-3991-7381,月曜、火曜,１５：００−２４：００,35.747275,139.6670281
天然温泉 久松湯,https://www.1010.or.jp/map/item/item-cnt-627,550,東京都練馬区桜台４−３２−１５,03-3991-5092,火曜,１１：００−２３：００,35.741383,139.661781
平和湯,https://www.1010.or.jp/map/item/item-cnt-630,550,東京都練馬区中村南３−１１−２,03-3990-1666,金曜,１５：３０−２４：００,35.726138,139.6409645
中村浴場,https://www.1010.or.jp/map/item/item-cnt-631,550,東京都練馬区中村北３−３−１１,03-3999-2610,月曜,１５：３０−２４：００,35.7364786,139.641086399999
貫井浴場,https://www.1010.or.jp/map/item/item-cnt-633,550,東京都練馬区貫井２−２０−１６,03-3970-4126,月曜祝日は翌日休,１５：００−２４：００,35.7402194999999,139.632609199999
ゆ～ポッポ,https://www.1010.or.jp/map/item/item-cnt-636,550,東京都練馬区北町６−４−１３,03-3933-3564,月曜祝日は営業,１５：００−２３：００※入店は２２：００まで,35.7600234,139.655770399999
桑の湯,https://www.1010.or.jp/map/item/item-cnt-637,550,東京都練馬区北町８−５−２,03-3933-5040,月曜,１５：００−２２：００,35.7643949,139.6493874
小川バスマンション,https://www.1010.or.jp/map/item/item-cnt-638,550,東京都練馬区田柄２−３２−２０,03-3939-0639,金曜,１５：３０−２２：００,35.7686554,139.6452375
たつの湯,https://www.1010.or.jp/map/item/item-cnt-641,550,東京都練馬区石神井台６−１９−２６,03-3922-0753,月曜,１５：００−２２：３０（最終受付２２：００）,35.7389153,139.5796527
練馬湯遊邸 松の湯,https://www.1010.or.jp/map/item/item-cnt-642,550,東京都練馬区石神井台７−１１−１,03-6904-7667,水曜,１５：００−２３：００,35.730158,139.5793363
豊宏湯,https://www.1010.or.jp/map/item/item-cnt-644,550,東京都練馬区石神井町３−１４−８,03-3996-8650,水曜、木曜,１５：３０−２３：００,35.7419324,139.6037506
第二亀の湯,https://www.1010.or.jp/map/item/item-cnt-646,550,東京都練馬区関町北１−１５−７,03-3920-3542,月曜,１２：００－２３：００,35.7253697,139.577553299999
三原台 富士の湯,https://www.1010.or.jp/map/item/item-cnt-648,550,東京都練馬区三原台１−３０−１,03-3923-5811,月曜、火曜,１５：００−２２：００,35.7505646,139.602894699999
美寿々湯,https://www.1010.or.jp/map/item/item-cnt-649,550,東京都練馬区大泉町６−１０−２,03-3924-5010,月曜・金曜祝日は翌日休,１６：００−２２：３０日曜、祝日は１５：００から営業,35.7560332,139.594934299999
美保湯（休業中）,https://www.1010.or.jp/map/item/item-cnt-651,550,東京都立川市羽衣町１−２−１８,042-524-7057,7日、17日、27日日曜、祝日の場合は翌日休,１５：００−２３：５０,35.6981858,139.4229589
松見湯,https://www.1010.or.jp/map/item/item-cnt-652,550,東京都立川市羽衣町１−８−１２,042-523-4771,２、１２、２２日,１５：００−２３：００,35.6965054,139.425814299999
立川湯屋敷 梅の湯,https://www.1010.or.jp/map/item/item-cnt-653,550,東京都立川市高松町３−１３−２,042-522-3800,無休正月三が日を除く,１５：００−２４：００,35.7032268,139.4164316
鳩の湯,https://www.1010.or.jp/map/item/item-cnt-654,550,東京都国立市東２−８−１９,042-572-0918,月曜,１３：００−２３：００,35.6948696,139.4522649
富士見湯健康セントー,https://www.1010.or.jp/map/item/item-cnt-655,550,東京都東大和市南街６−１−２５,042-567-1126,火曜祝日は営業、月末の火曜は営業,１５：００−２３：００,35.7373896,139.4298599
神明湯,https://www.1010.or.jp/map/item/item-cnt-656,550,東京都東大和市新堀１−１４３２−５９,042-562-2711,金曜,１５：００−２３：００,35.7398532,139.4496192
砂川湯,https://www.1010.or.jp/map/item/item-cnt-657,550,東京都武蔵村山市学園３−６８−１,042-843-8878,月曜祝日は営業,１５：００−２２：３０日曜は８：００−１１：００、１５：００−２２：３０,35.7446993,139.4053063
昭和湯,https://www.1010.or.jp/map/item/item-cnt-659,550,東京都昭島市玉川町４−３−７,042-541-3122,月曜、木曜、金曜,１５：００−２２：００,35.7048478,139.3803792
富士見湯,https://www.1010.or.jp/map/item/item-cnt-660,550,東京都昭島市中神町１２６０,042-541-2081,月曜（月曜祝日時は営業、翌火曜休業）,１２：００－翌日朝９：００まで（待合室は１０：００までご利用可能）,35.709746,139.380841
ぬくい湯,https://www.1010.or.jp/map/item/item-cnt-661,550,東京都小金井市貫井北町３−４−４,042-383-5757,月曜,１６：００−２３：００,35.7072611,139.497499999999
桃の湯,https://www.1010.or.jp/map/item/item-cnt-662,550,東京都国分寺市東元町３−１−２０,042-321-2610,７、１７、２７日日曜は前日休、祝日は翌日休,１６：００−２４：００,35.6939178,139.480729699999
旭湯,https://www.1010.or.jp/map/item/item-cnt-664,550,東京都府中市宮西町３−６−２,042-361-9362,月曜,１５：３０−２３：００日曜は１４：００から営業,35.6719397,139.474186599999
府中湯楽館 桜湯,https://www.1010.or.jp/map/item/item-cnt-666,550,東京都府中市宮町１−２３−３,042-319-0043,無休,１６：００−２３：００,35.6707329,139.4819999
松の湯（府中）,https://www.1010.or.jp/map/item/item-cnt-667,550,東京都府中市新町３−６−５,042-365-0204,月曜祝日は翌日休,１６：００−２３：００,35.6924832,139.4877961
藤の湯,https://www.1010.or.jp/map/item/item-cnt-668,550,東京都府中市朝日町２−２７−２０,042-361-4422,月曜,１６：００−２３：００,35.6767848,139.518399199999
調布鶴の湯,https://www.1010.or.jp/map/item/item-cnt-669,550,東京都調布市下石原１−１０−２,,火曜,６：００−２５：００※ １０：００−１２：００  清掃,35.6572716,139.5353462
神代湯,https://www.1010.or.jp/map/item/item-cnt-670,550,東京都調布市菊野台１−１３−１,042-489-2641,水曜 （祝日は翌日休）,１４：００−２３：００,35.6545807,139.566282399999
梅の湯,https://www.1010.or.jp/map/item/item-cnt-671,550,東京都調布市深大寺東町６−９−５,042-482-4526,月曜祝日は翌日休,１５：００−２２：３０日曜は１３：００から営業,35.6752195,139.557679
湯の森 深大湯,https://www.1010.or.jp/map/item/item-cnt-672,550,東京都調布市深大寺北町６−１７−３,042-482-4652,木曜、第３水曜,１５：００−２３：００日曜は１３：００−２３：００,35.6774189,139.5465189
富の湯,https://www.1010.or.jp/map/item/item-cnt-673,550,東京都狛江市西野川４−５−１４,03-3488-2272,月曜,１４：００−２４：００日曜は８：００−１２：００も営業,35.6465514,139.5697132
狛江湯,https://www.1010.or.jp/map/item/item-cnt-674,550,東京都狛江市東和泉１−１２−６,03-3489-3881,火曜,１３：００−２３：００,35.6326119,139.5794576
お湯どころ野川,https://www.1010.or.jp/map/item/item-cnt-676,550,東京都狛江市東野川１−３０−１４,03-3488-2642,月曜祝日は翌日休／毎月最後の月、火曜は連休（最終月曜が祝日の場合は前の週の月、火曜連休）,１７：００−２４：００（最終入店２３：３０）日曜、祝日は１５：００から営業,35.6413383,139.582931499999
境南浴場,https://www.1010.or.jp/map/item/item-cnt-681,550,東京都武蔵野市境南町３−１１−８,0422-31-7347,金曜、第２・第４木曜,１６：００−２３：００,35.7002188,139.541296399999
春の湯,https://www.1010.or.jp/map/item/item-cnt-682,550,東京都三鷹市下連雀３−３７−１２,0422-43-5832,木曜,１６：００−２３：３０,35.6996639,139.5601642
千代乃湯,https://www.1010.or.jp/map/item/item-cnt-684,550,東京都三鷹市井口２−４−３１,0422-39-1010,火曜,１５：３０−２３：００ （受付は２２：３０まで）土曜、日曜、祝日は１３：００から営業,35.6872067,139.5493155
のぼり湯,https://www.1010.or.jp/map/item/item-cnt-685,550,東京都三鷹市井口５−５−１８,0422-31-7645,水曜,１６：００−２３：００,35.6952748,139.5348555
桜湯,https://www.1010.or.jp/map/item/item-cnt-689,550,東京都東村山市萩山町３−１５−１,042-391-0547,月曜祝日は翌日休,１５：００−２３：００,35.7458645,139.4725421
ゆパウザひばり,https://www.1010.or.jp/map/item/item-cnt-692,550,東京都西東京市谷戸町３−１７−８,042-421-6773,木曜,１５：００−２３：３０日曜・祝日は１３：００−２３：３０,35.7482465,139.543443799999
庚申湯,https://www.1010.or.jp/map/item/item-cnt-693,550,東京都西東京市芝久保町１−１３−２,042-465-0261,月曜・第1火曜,１５：００−２３：００,35.7227685,139.528485199999
源の湯,https://www.1010.or.jp/map/item/item-cnt-697,550,東京都東久留米市東本町７−６,042-471-0005,月曜,１５：３０−２３：００,35.7628583,139.5328388
第二喜多の湯,https://www.1010.or.jp/map/item/item-cnt-698,550,東京都東久留米市幸町１−５−１０,042-471-2475,不定休,１５：００−２２：００,35.7599945,139.526086699999
稲荷湯,https://www.1010.or.jp/map/item/item-cnt-699,550,東京都八王子市子安町１−２７−２０,042-642-2825,水曜（祝日は翌日休）,１４：００−２３：３０,35.652789,139.3411565
松の湯（八王子）,https://www.1010.or.jp/map/item/item-cnt-700,550,東京都八王子市小門町１１９－３,042-622-5356,火曜,１４：００−２３：３０,35.6595571,139.325129999999
大蔵湯,https://www.1010.or.jp/map/item/item-cnt-704,550,東京都町田市木曽町５２２,042-723-5664,金曜,１６：００−２３：００,35.5617376,139.429988399999
